{
"type": "FeatureCollection",
"name": "museum",
"crs": { "type": "name", "properties": { "name": "urn:ogc:def:crs:OGC:1.3:CRS84" } },
"features": [
{ "type": "Feature", "properties": { "name": "متحف دار خديجة", "name:en": "Musee dar Khadija", "amenity": null, "man_made": null, "shop": null, "tourism": "museum", "opening_hours": null, "beds": null, "rooms": null, "addr:full": null, "addr:housenumber": null, "addr:street": null, "addr:city": "مطماطة", "source": null, "name:ar": "متحف دار خديجة", "osm_id": 6220843190, "osm_type": "nodes" }, "geometry": { "type": "Point", "coordinates": [ 9.9685448, 33.5421566 ] } },
{ "type": "Feature", "properties": { "name": "Musée national d'Utique", "name:en": null, "amenity": null, "man_made": null, "shop": null, "tourism": "museum", "opening_hours": null, "beds": null, "rooms": null, "addr:full": null, "addr:housenumber": null, "addr:street": null, "addr:city": null, "source": null, "name:ar": null, "osm_id": 1131734857, "osm_type": "nodes" }, "geometry": { "type": "Point", "coordinates": [ 10.0569353, 37.0506657 ] } },
{ "type": "Feature", "properties": { "name": "Dar Cherait", "name:en": null, "amenity": null, "man_made": null, "shop": null, "tourism": "museum", "opening_hours": null, "beds": null, "rooms": null, "addr:full": null, "addr:housenumber": null, "addr:street": null, "addr:city": null, "source": null, "name:ar": null, "osm_id": 351597412, "osm_type": "nodes" }, "geometry": { "type": "Point", "coordinates": [ 8.1206149, 33.9131635 ] } },
{ "type": "Feature", "properties": { "name": "Kobba - Musée Arts & Trad. Populaires", "name:en": "El Kobba museum of traditional arts and clothing", "amenity": null, "man_made": null, "shop": null, "tourism": "museum", "opening_hours": null, "beds": null, "rooms": null, "addr:full": null, "addr:housenumber": null, "addr:street": null, "addr:city": null, "source": null, "name:ar": "متحف القبة", "osm_id": 5090298621, "osm_type": "nodes" }, "geometry": { "type": "Point", "coordinates": [ 10.6382869, 35.8250009 ] } },
{ "type": "Feature", "properties": { "name": "زاوية سيدي الصاحب", "name:en": "Zaouia of Sidi Sahabi", "amenity": null, "man_made": null, "shop": null, "tourism": "museum", "opening_hours": null, "beds": null, "rooms": null, "addr:full": null, "addr:housenumber": null, "addr:street": null, "addr:city": null, "source": null, "name:ar": null, "osm_id": 6361214898, "osm_type": "nodes" }, "geometry": { "type": "Point", "coordinates": [ 10.0904862, 35.6819214 ] } },
{ "type": "Feature", "properties": { "name": "المتحف الأثري بسوسة", "name:en": "Sousse Archeological Museum", "amenity": null, "man_made": null, "shop": null, "tourism": "museum", "opening_hours": null, "beds": null, "rooms": null, "addr:full": null, "addr:housenumber": null, "addr:street": null, "addr:city": "سوسة", "source": null, "name:ar": "المتحف الأثري بسوسة", "osm_id": 2094066071, "osm_type": "nodes" }, "geometry": { "type": "Point", "coordinates": [ 10.6355756, 35.8231085 ] } },
{ "type": "Feature", "properties": { "name": "Musée mémoire Zmerten", "name:en": null, "amenity": null, "man_made": null, "shop": null, "tourism": "museum", "opening_hours": null, "beds": null, "rooms": null, "addr:full": null, "addr:housenumber": null, "addr:street": null, "addr:city": null, "source": null, "name:ar": null, "osm_id": 11047496962, "osm_type": "nodes" }, "geometry": { "type": "Point", "coordinates": [ 10.1268206, 33.4194129 ] } },
{ "type": "Feature", "properties": { "name": "Madrassa Sidi Moussa Jomani", "name:en": null, "amenity": null, "man_made": null, "shop": null, "tourism": "museum", "opening_hours": null, "beds": null, "rooms": null, "addr:full": null, "addr:housenumber": null, "addr:street": null, "addr:city": "Matmata el Qadima", "source": null, "name:ar": null, "osm_id": 11807174192, "osm_type": "nodes" }, "geometry": { "type": "Point", "coordinates": [ 9.9729137, 33.5439959 ] } },
{ "type": "Feature", "properties": { "name": "Musée des Costumes et des Traditions", "name:en": null, "amenity": null, "man_made": null, "shop": null, "tourism": "museum", "opening_hours": null, "beds": null, "rooms": null, "addr:full": null, "addr:housenumber": null, "addr:street": null, "addr:city": "Medenine", "source": null, "name:ar": null, "osm_id": 11807118339, "osm_type": "nodes" }, "geometry": { "type": "Point", "coordinates": [ 10.4912082, 33.3474601 ] } },
{ "type": "Feature", "properties": { "name": "Musée Berbère de Tamezret", "name:en": null, "amenity": null, "man_made": null, "shop": null, "tourism": "museum", "opening_hours": "Mo-Su 09:00-18:00", "beds": null, "rooms": null, "addr:full": null, "addr:housenumber": null, "addr:street": null, "addr:city": "Tamezret", "source": null, "name:ar": "متحف البربر", "osm_id": 4811121277, "osm_type": "nodes" }, "geometry": { "type": "Point", "coordinates": [ 9.8644438, 33.5368798 ] } },
{ "type": "Feature", "properties": { "name": "Musée Dar Essid", "name:en": "Museum Dar Essid", "amenity": null, "man_made": null, "shop": null, "tourism": "museum", "opening_hours": null, "beds": null, "rooms": null, "addr:full": null, "addr:housenumber": null, "addr:street": null, "addr:city": null, "source": null, "name:ar": null, "osm_id": 5090248521, "osm_type": "nodes" }, "geometry": { "type": "Point", "coordinates": [ 10.6354408, 35.8271516 ] } },
{ "type": "Feature", "properties": { "name": "شمتو", "name:en": null, "amenity": null, "man_made": null, "shop": null, "tourism": "museum", "opening_hours": null, "beds": null, "rooms": null, "addr:full": null, "addr:housenumber": null, "addr:street": null, "addr:city": "شمتو", "source": null, "name:ar": "شمتو", "osm_id": 4505038289, "osm_type": "nodes" }, "geometry": { "type": "Point", "coordinates": [ 8.5771474, 36.4900949 ] } },
{ "type": "Feature", "properties": { "name": "Dar El Jem", "name:en": null, "amenity": null, "man_made": null, "shop": null, "tourism": "museum", "opening_hours": null, "beds": null, "rooms": null, "addr:full": null, "addr:housenumber": null, "addr:street": null, "addr:city": null, "source": null, "name:ar": null, "osm_id": 2610190990, "osm_type": "nodes" }, "geometry": { "type": "Point", "coordinates": [ 10.7054209, 35.2984183 ] } },
{ "type": "Feature", "properties": { "name": "Musée Du Patrimoine Insulaire", "name:en": null, "amenity": null, "man_made": null, "shop": null, "tourism": "museum", "opening_hours": null, "beds": null, "rooms": null, "addr:full": null, "addr:housenumber": null, "addr:street": null, "addr:city": null, "source": null, "name:ar": null, "osm_id": 4581665234, "osm_type": "nodes" }, "geometry": { "type": "Point", "coordinates": [ 11.2435973, 34.7195683 ] } },
{ "type": "Feature", "properties": { "name": "Musée des Timbres", "name:en": "Musée des Timbres", "amenity": null, "man_made": null, "shop": null, "tourism": "museum", "opening_hours": null, "beds": null, "rooms": null, "addr:full": null, "addr:housenumber": null, "addr:street": null, "addr:city": null, "source": null, "name:ar": null, "osm_id": 5090400921, "osm_type": "nodes" }, "geometry": { "type": "Point", "coordinates": [ 10.1786566, 36.7968968 ] } },
{ "type": "Feature", "properties": { "name": "Museée du patrimoine traditionnel de Djerba", "name:en": null, "amenity": null, "man_made": null, "shop": null, "tourism": "museum", "opening_hours": null, "beds": null, "rooms": null, "addr:full": null, "addr:housenumber": null, "addr:street": "Avenue Habib Thameur", "addr:city": "Houmt Souk", "source": null, "name:ar": null, "osm_id": 3416046215, "osm_type": "nodes" }, "geometry": { "type": "Point", "coordinates": [ 10.8623342, 33.879968 ] } },
{ "type": "Feature", "properties": { "name": "Lalla Hadria", "name:en": null, "amenity": null, "man_made": null, "shop": null, "tourism": "museum", "opening_hours": null, "beds": null, "rooms": null, "addr:full": null, "addr:housenumber": null, "addr:street": null, "addr:city": null, "source": null, "name:ar": null, "osm_id": 352842148, "osm_type": "nodes" }, "geometry": { "type": "Point", "coordinates": [ 11.0449202, 33.8199094 ] } },
{ "type": "Feature", "properties": { "name": "Sidi Abid el-Ghariani Zaouia", "name:en": null, "amenity": null, "man_made": null, "shop": null, "tourism": "museum", "opening_hours": null, "beds": null, "rooms": null, "addr:full": null, "addr:housenumber": null, "addr:street": null, "addr:city": null, "source": null, "name:ar": null, "osm_id": 322930940, "osm_type": "nodes" }, "geometry": { "type": "Point", "coordinates": [ 10.1017179, 35.6752729 ] } },
{ "type": "Feature", "properties": { "name": "Mausolée Sidi Ammar", "name:en": null, "amenity": null, "man_made": null, "shop": null, "tourism": "museum", "opening_hours": null, "beds": null, "rooms": null, "addr:full": null, "addr:housenumber": null, "addr:street": null, "addr:city": null, "source": null, "name:ar": null, "osm_id": 705194168, "osm_type": "nodes" }, "geometry": { "type": "Point", "coordinates": [ 10.8923514, 35.6707191 ] } },
{ "type": "Feature", "properties": { "name": "Sidi Abu Said", "name:en": null, "amenity": null, "man_made": null, "shop": null, "tourism": "museum", "opening_hours": null, "beds": null, "rooms": null, "addr:full": null, "addr:housenumber": null, "addr:street": null, "addr:city": null, "source": null, "name:ar": null, "osm_id": 6274661851, "osm_type": "nodes" }, "geometry": { "type": "Point", "coordinates": [ 10.350807, 36.8705291 ] } },
{ "type": "Feature", "properties": { "name": "متحف القصبة", "name:en": null, "amenity": null, "man_made": null, "shop": null, "tourism": "museum", "opening_hours": null, "beds": null, "rooms": null, "addr:full": null, "addr:housenumber": null, "addr:street": null, "addr:city": null, "source": null, "name:ar": "متحف القصبة", "osm_id": 316133636, "osm_type": "nodes" }, "geometry": { "type": "Point", "coordinates": [ 10.7588084, 34.7335001 ] } },
{ "type": "Feature", "properties": { "name": "Rakada Palace Museum", "name:en": null, "amenity": null, "man_made": null, "shop": null, "tourism": "museum", "opening_hours": null, "beds": null, "rooms": null, "addr:full": null, "addr:housenumber": null, "addr:street": null, "addr:city": null, "source": null, "name:ar": null, "osm_id": 2902045923, "osm_type": "nodes" }, "geometry": { "type": "Point", "coordinates": [ 10.0531757, 35.5934931 ] } },
{ "type": "Feature", "properties": { "name": "متحف مدينة تونس", "name:en": "Museum of Modern Art", "amenity": null, "man_made": null, "shop": null, "tourism": "museum", "opening_hours": null, "beds": null, "rooms": null, "addr:full": null, "addr:housenumber": null, "addr:street": null, "addr:city": null, "source": null, "name:ar": "متحف مدينة تونس", "osm_id": 1103552060, "osm_type": "nodes" }, "geometry": { "type": "Point", "coordinates": [ 10.1685013, 36.8016198 ] } },
{ "type": "Feature", "properties": { "name": "متحف العدل وحقوق الإنسان", "name:en": null, "amenity": null, "man_made": null, "shop": null, "tourism": "museum", "opening_hours": null, "beds": null, "rooms": null, "addr:full": null, "addr:housenumber": null, "addr:street": null, "addr:city": "تونس", "source": null, "name:ar": "متحف العدل وحقوق الإنسان", "osm_id": 5669152954, "osm_type": "nodes" }, "geometry": { "type": "Point", "coordinates": [ 10.166128, 36.7998809 ] } },
{ "type": "Feature", "properties": { "name": "متحف السينما", "name:en": null, "amenity": null, "man_made": null, "shop": null, "tourism": "museum", "opening_hours": null, "beds": null, "rooms": null, "addr:full": null, "addr:housenumber": null, "addr:street": null, "addr:city": null, "source": null, "name:ar": "متحف السينما", "osm_id": 5089226022, "osm_type": "nodes" }, "geometry": { "type": "Point", "coordinates": [ 10.1656017, 36.7964282 ] } },
{ "type": "Feature", "properties": { "name": "Palais Présidentiel de Bourguiba", "name:en": null, "amenity": null, "man_made": null, "shop": null, "tourism": "museum", "opening_hours": null, "beds": null, "rooms": null, "addr:full": null, "addr:housenumber": null, "addr:street": null, "addr:city": null, "source": null, "name:ar": null, "osm_id": 2306650078, "osm_type": "nodes" }, "geometry": { "type": "Point", "coordinates": [ 10.7841109, 35.7784819 ] } },
{ "type": "Feature", "properties": { "name": "Musée du Patrimoine de Guellala", "name:en": null, "amenity": null, "man_made": null, "shop": null, "tourism": "museum", "opening_hours": null, "beds": null, "rooms": null, "addr:full": null, "addr:housenumber": null, "addr:street": null, "addr:city": null, "source": null, "name:ar": null, "osm_id": 1905357351, "osm_type": "nodes" }, "geometry": { "type": "Point", "coordinates": [ 10.8656304, 33.7325594 ] } },
{ "type": "Feature", "properties": { "name": "Huilerie traditionnelle souterraine Fessili", "name:en": null, "amenity": null, "man_made": null, "shop": null, "tourism": "museum", "opening_hours": "Tu-Su 09:00-17:00 (Ramadhan 10:00-16:00)", "beds": null, "rooms": null, "addr:full": null, "addr:housenumber": null, "addr:street": null, "addr:city": "Midoun", "source": null, "name:ar": null, "osm_id": 11691949310, "osm_type": "nodes" }, "geometry": { "type": "Point", "coordinates": [ 10.991937, 33.8101381 ] } },
{ "type": "Feature", "properties": { "name": "Dar Taoufik Matmata", "name:en": null, "amenity": null, "man_made": null, "shop": null, "tourism": "museum", "opening_hours": null, "beds": null, "rooms": null, "addr:full": null, "addr:housenumber": null, "addr:street": null, "addr:city": null, "source": null, "name:ar": null, "osm_id": 4914008623, "osm_type": "nodes" }, "geometry": { "type": "Point", "coordinates": [ 9.9429978, 33.549859 ] } },
{ "type": "Feature", "properties": { "name": "Musée Naturel Du Sud Tunisien", "name:en": null, "amenity": null, "man_made": null, "shop": null, "tourism": "museum", "opening_hours": null, "beds": null, "rooms": null, "addr:full": null, "addr:housenumber": null, "addr:street": null, "addr:city": null, "source": null, "name:ar": null, "osm_id": 2967189009, "osm_type": "nodes" }, "geometry": { "type": "Point", "coordinates": [ 10.0599096, 33.8637936 ] } },
{ "type": "Feature", "properties": { "name": "Musée du Sahara de Douz", "name:en": null, "amenity": null, "man_made": null, "shop": null, "tourism": "museum", "opening_hours": null, "beds": null, "rooms": null, "addr:full": null, "addr:housenumber": null, "addr:street": null, "addr:city": null, "source": null, "name:ar": null, "osm_id": 12386384101, "osm_type": "nodes" }, "geometry": { "type": "Point", "coordinates": [ 9.0183684, 33.4521873 ] } },
{ "type": "Feature", "properties": { "name": "Borj el Ghazi Mustapha", "name:en": null, "amenity": null, "man_made": null, "shop": null, "tourism": "museum", "opening_hours": null, "beds": null, "rooms": null, "addr:full": null, "addr:housenumber": null, "addr:street": null, "addr:city": "حومة السوق", "source": null, "name:ar": null, "osm_id": 3417566382, "osm_type": "nodes" }, "geometry": { "type": "Point", "coordinates": [ 10.8604242, 33.8838904 ] } },
{ "type": "Feature", "properties": { "name": "Eden Palm", "name:en": null, "amenity": null, "man_made": null, "shop": null, "tourism": "museum", "opening_hours": null, "beds": null, "rooms": null, "addr:full": null, "addr:housenumber": null, "addr:street": null, "addr:city": null, "source": null, "name:ar": null, "osm_id": 2178628385, "osm_type": "nodes" }, "geometry": { "type": "Point", "coordinates": [ 8.1472011, 33.9171094 ] } },
{ "type": "Feature", "properties": { "name": "Nabeul Museum", "name:en": null, "amenity": null, "man_made": null, "shop": null, "tourism": "museum", "opening_hours": null, "beds": null, "rooms": null, "addr:full": null, "addr:housenumber": null, "addr:street": null, "addr:city": null, "source": null, "name:ar": null, "osm_id": 1859395402, "osm_type": "nodes" }, "geometry": { "type": "Point", "coordinates": [ 10.7362439, 36.4506766 ] } },
{ "type": "Feature", "properties": { "name": "Musée des arts et traditions populaires", "name:en": null, "amenity": null, "man_made": null, "shop": null, "tourism": "museum", "opening_hours": null, "beds": null, "rooms": null, "addr:full": null, "addr:housenumber": null, "addr:street": null, "addr:city": "المنستير", "source": null, "name:ar": null, "osm_id": 2935193667, "osm_type": "nodes" }, "geometry": { "type": "Point", "coordinates": [ 10.8309936, 35.774202 ] } },
{ "type": "Feature", "properties": { "name": "Musée d'arts islamiques", "name:en": null, "amenity": null, "man_made": null, "shop": null, "tourism": "museum", "opening_hours": null, "beds": null, "rooms": null, "addr:full": null, "addr:housenumber": null, "addr:street": null, "addr:city": "المنستير", "source": null, "name:ar": null, "osm_id": 2935194780, "osm_type": "nodes" }, "geometry": { "type": "Point", "coordinates": [ 10.833079, 35.7759331 ] } },
{ "type": "Feature", "properties": { "name": "برج خديجة", "name:en": null, "amenity": null, "man_made": null, "shop": null, "tourism": "museum", "opening_hours": null, "beds": null, "rooms": null, "addr:full": null, "addr:housenumber": null, "addr:street": null, "addr:city": null, "source": null, "name:ar": "برج خديجة", "osm_id": 974763393, "osm_type": "nodes" }, "geometry": { "type": "Point", "coordinates": [ 11.1563371, 35.2349806 ] } },
{ "type": "Feature", "properties": { "name": "المتحف الوطني بقرطاج", "name:en": "Carthage National Museum", "amenity": null, "man_made": null, "shop": null, "tourism": "museum", "opening_hours": null, "beds": null, "rooms": null, "addr:full": null, "addr:housenumber": null, "addr:street": "Rue Mendes France", "addr:city": null, "source": null, "name:ar": "المتحف الوطني بقرطاج", "osm_id": 288347882, "osm_type": "nodes" }, "geometry": { "type": "Point", "coordinates": [ 10.3242982, 36.8535697 ] } },
{ "type": "Feature", "properties": { "name": "متحف العملة", "name:en": null, "amenity": null, "man_made": null, "shop": null, "tourism": "museum", "opening_hours": null, "beds": null, "rooms": null, "addr:full": null, "addr:housenumber": null, "addr:street": null, "addr:city": null, "source": null, "name:ar": "متحف العملة", "osm_id": 1036946012, "osm_type": "nodes" }, "geometry": { "type": "Point", "coordinates": [ 10.1850565, 36.8046603 ] } },
{ "type": "Feature", "properties": { "name": "متحف المالية", "name:en": "Finance Museum", "amenity": null, "man_made": null, "shop": null, "tourism": "museum", "opening_hours": null, "beds": null, "rooms": null, "addr:full": null, "addr:housenumber": null, "addr:street": null, "addr:city": "تونس", "source": null, "name:ar": "متحف المالية", "osm_id": 1263965887, "osm_type": "nodes" }, "geometry": { "type": "Point", "coordinates": [ 10.1783091, 36.8011203 ] } },
{ "type": "Feature", "properties": { "name": "دار العنابي", "name:en": "Dar El-Annabi", "amenity": null, "man_made": null, "shop": null, "tourism": "museum", "opening_hours": null, "beds": null, "rooms": null, "addr:full": null, "addr:housenumber": null, "addr:street": null, "addr:city": null, "source": null, "name:ar": "دار العنابي", "osm_id": 6274661845, "osm_type": "nodes" }, "geometry": { "type": "Point", "coordinates": [ 10.3473955, 36.8709464 ] } },
{ "type": "Feature", "properties": { "name": "المتحف الكنيسة الأثرية بقرطاج", "name:en": "The Carthage Early Christian Museum", "amenity": null, "man_made": null, "shop": null, "tourism": "museum", "opening_hours": null, "beds": null, "rooms": null, "addr:full": null, "addr:housenumber": null, "addr:street": null, "addr:city": "قرطاج الشاطئ", "source": null, "name:ar": "المتحف الكنيسة الأثرية بقرطاج", "osm_id": 6343593152, "osm_type": "nodes" }, "geometry": { "type": "Point", "coordinates": [ 10.3281545, 36.8506397 ] } },
{ "type": "Feature", "properties": { "name": "المتحف الأوقيانوغرافي", "name:en": "Oceanographic Museum", "amenity": null, "man_made": null, "shop": null, "tourism": "museum", "opening_hours": null, "beds": null, "rooms": null, "addr:full": null, "addr:housenumber": null, "addr:street": null, "addr:city": null, "source": null, "name:ar": "المتحف الأوقيانوغرافي", "osm_id": 1761027112, "osm_type": "nodes" }, "geometry": { "type": "Point", "coordinates": [ 9.8767036, 37.2781887 ] } },
{ "type": "Feature", "properties": { "name": "MACAM Tunis", "name:en": null, "amenity": null, "man_made": null, "shop": null, "tourism": "museum", "opening_hours": null, "beds": null, "rooms": null, "addr:full": null, "addr:housenumber": null, "addr:street": null, "addr:city": null, "source": null, "name:ar": null, "osm_id": 10296641011, "osm_type": "nodes" }, "geometry": { "type": "Point", "coordinates": [ 10.1864568, 36.8105541 ] } },
{ "type": "Feature", "properties": { "name": "متحف جبل السرج ecomuseum jbel al sarj", "name:en": null, "amenity": null, "man_made": null, "shop": null, "tourism": "museum", "opening_hours": null, "beds": null, "rooms": null, "addr:full": null, "addr:housenumber": null, "addr:street": null, "addr:city": null, "source": null, "name:ar": null, "osm_id": 12509972698, "osm_type": "nodes" }, "geometry": { "type": "Point", "coordinates": [ 9.5468829, 35.9448064 ] } }
]
}
